{
  "type": "FeatureCollection",
  "features": [
    {
      "geometry": {
        "type": "Point",
        "coordinates": [
          -84.4676609,
          33.7541787
        ]
      },
      "type": "Feature",
      "properties": {
        "operating": "tuesday",
        "hours": "3pm - 7pm",
        "description": "Cash, Credit and EBT/SNAP",
        "name": "Fresh MARTA Market at West End Station",
        "address": "680 Lee St SW, Atlanta, GA 30310",
        "availability": "May 1 to November 27"
      }
    },
    {
      "geometry": {
        "type": "Point",
        "coordinates": [
          -84.4676609,
          33.7541787
        ]
      },
      "type": "Feature",
      "properties": {
        "operating": "wednesday",
        "hours": "3pm - 7pm",
        "description": "Cash, Credit and EBT/SNAP",
        "name": "Fresh MARTA Market at H.E. Holmes Station",
        "address": "",
        "availability": "May 9 to November 28"
      }
    },
    {
      "geometry": {
        "type": "Point",
        "coordinates": [
          -84.44824640000002,
          33.65076
        ]
      },
      "type": "Feature",
      "properties": {
        "operating": "thursday",
        "hours": "3pm - 7pm",
        "description": "CCash, Credit and EBT/SNAP",
        "name": "Fresh MARTA Market at College Park Station",
        "address": "",
        "availability": "May 10 to November 29"
      }
    },
    {
      "geometry": {
        "type": "Point",
        "coordinates": [
          -84.39162099999999,
          33.7538799
        ]
      },
      "type": "Feature",
      "properties": {
        "operating": "friday",
        "hours": "3pm - 7pm",
        "description": "Cash, Credit and EBT/SNAP",
        "name": "Fresh MARTA Market at Five Points Station",
        "address": "",
        "availability": "May 4 to November 30 (except November 24)"
      }
    },
    {
      "geometry": {
        "type": "Point",
        "coordinates": [
          -84.297573,
          33.778788
        ]
      },
      "type": "Feature",
      "properties": {
        "operating": "wednesday",
        "hours": "4pm - 7pm",
        "description": "Cash, Credit and EBT/SNAP",
        "name": "Decatur Farmers Market",
        "address": "",
        "availability": "April 11 - December 19"
      }
    },
    {
      "geometry": {
        "type": "Point",
        "coordinates": [
          -84.297573,
          33.778788
        ]
      },
      "type": "Feature",
      "properties": {
        "operating": "saturday",
        "hours": "9am - 1pm",
        "description": "Cash, Credit and EBT/SNAP",
        "name": "Decatur Farmers Market",
        "address": "",
        "availability": "April 14 to December 15"
      }
    },
    {
      "geometry": {
        "type": "Point",
        "coordinates": [
          -84.34468340000001,
          33.7385136
        ]
      },
      "type": "Feature",
      "properties": {
        "operating": "thursday",
        "hours": "4pm - 8pm",
        "description": "Cash, Credit and EBT/SNAP",
        "name": "East Atlanta Village Farmers Market",
        "address": "572 Stokeswood Ave",
        "availability": "April 12 to November 15"
      }
    },
    {
      "geometry": {
        "type": "Point",
        "coordinates": [
          -84.37358039999998,
          33.7387694
        ]
      },
      "type": "Feature",
      "properties": {
        "operating": "sunday",
        "hours": "9am - 1pm",
        "description": "Cash, Credit and EBT/SNAP",
        "name": "Grant Park Farmers Market",
        "address": "600 CHEROKEE AVE SE",
        "availability": "April 8 to December 16"
      }
    },
    {
      "geometry": {
        "type": "Point",
        "coordinates": [
          -84.36559669999997,
          33.7727683
        ]
      },
      "type": "Feature",
      "properties": {
        "operating": "tuesday",
        "hours": "4pm - 8pm",
        "description": "Cash, Credit and EBT/SNAP",
        "name": "Ponce City Farmers Market",
        "address": "The Shed at Ponce City Market,Â 675 PONCE DE LEON AVE NE",
        "availability": "April 10 to November 20"
      }
    },
    {
      "geometry": {
        "type": "Point",
        "coordinates": [
          -84.4676609,
          33.7541787
        ]
      },
      "type": "Feature",
      "properties": {
        "operating": "tuesday",
        "hours": "3pm - 7pm",
        "description": "Cash, Credit and EBT/SNAP",
        "name": "Fresh MARTA Market at West End Station",
        "address": "680 Lee St SW, Atlanta, GA 30310",
        "availability": "May 1 to November 27"
      }
    },
    {
      "geometry": {
        "type": "Point",
        "coordinates": [
          -84.296514,
          34.075727
        ]
      },
      "type": "Feature",
      "properties": {
        "operating": "saturday",
        "hours": "8:30am - 1pm",
        "description": "Check out Alpharetta",
        "name": "Alpharetta Farmers Market",
        "address": "Old Canton Street between Milton Avenue and Canton Street",
        "availability": "April 14 to November 27"
      }
    },
    {
      "geometry": {
        "type": "Point",
        "coordinates": [
          -84.296514,
          33.775665
        ]
      },
      "type": "Feature",
      "properties": {
        "operating": "sunday",
        "hours": "10am - 1pm",
        "description": "Check out Avondale",
        "name": "Avondale Estates Farmers Markets",
        "address": "22 N. Avondale Road",
        "availability": "April 8 to November 27"
      }
    },
    {
      "geometry": {
        "type": "Point",
        "coordinates": [
          -84.33469,
          33.859582
        ]
      },
      "type": "Feature",
      "properties": {
        "operating": "saturday",
        "hours": "9am - 12pm",
        "description": "Check out Brookhaven",
        "name": "Brookhaven Farmers Market",
        "address": "1375 Fernwood Circle",
        "availability": "April 7 to November 16"
      }
    }
  ]
}
